{
  "version": 0.6,
  "generator": "Overpass API",
  "osm3s": {
    "timestamp_osm_base": "2016-12-03T16:43:03Z",
    "copyright": "The data included in this document is from www.openstreetmap.org. The data is made available under ODbL."
  },
  "elements": [
    {
      "type": "node",
      "id": 21712656,
      "lat": 53.3809542,
      "lon": -1.5054675,
      "tags": {
        "amenity": "pub",
        "name": "The Old Grindstone"
      }
    },
    {
      "type": "node",
      "id": 21712895,
      "lat": 53.382689,
      "lon": -1.5066235,
      "tags": {
        "amenity": "pub",
        "created_by": "JOSM",
        "name": "Noah's Ark"
      }
    },
    {
      "type": "node",
      "id": 21718487,
      "lat": 53.3845202,
      "lon": -1.5028713,
      "tags": {
        "amenity": "pub",
        "name": "Cobden View"
      }
    },
    {
      "type": "node",
      "id": 26756033,
      "lat": 53.3932573,
      "lon": -1.4785704,
      "tags": {
        "amenity": "pub",
        "name": "The Gardeners Rest"
      }
    },
    {
      "type": "node",
      "id": 26784420,
      "lat": 53.3666917,
      "lon": -1.4899135,
      "tags": {
        "amenity": "pub",
        "name": "The Stag's Head"
      }
    },
    {
      "type": "node",
      "id": 26841929,
      "lat": 53.4037417,
      "lon": -1.4964856,
      "tags": {
        "amenity": "pub",
        "name": "The Hillsborough Club"
      }
    },
    {
      "type": "node",
      "id": 26841931,
      "lat": 53.3830148,
      "lon": -1.476202,
      "tags": {
        "amenity": "pub",
        "name": "Fagan's"
      }
    },
    {
      "type": "node",
      "id": 26842672,
      "lat": 53.3773999,
      "lon": -1.5011709,
      "tags": {
        "amenity": "pub",
        "name": "The Fox and Duck"
      }
    },
    {
      "type": "node",
      "id": 26885131,
      "lat": 53.3685434,
      "lon": -1.498459,
      "tags": {
        "addr:housenumber": "565",
        "amenity": "pub",
        "name": "Porter Brook"
      }
    },
    {
      "type": "node",
      "id": 69744305,
      "lat": 53.3805612,
      "lon": -1.4779507,
      "tags": {
        "amenity": "pub",
        "name": "Bloo 88",
        "old_name": "The Hallamshire Hotel"
      }
    },
    {
      "type": "node",
      "id": 70647362,
      "lat": 53.4013067,
      "lon": -1.491995,
      "tags": {
        "amenity": "pub",
        "name": "The Masons Arms"
      }
    },
    {
      "type": "node",
      "id": 71307682,
      "lat": 53.3627872,
      "lon": -1.4322686,
      "tags": {
        "amenity": "pub",
        "name": "Manor Estate Social Club"
      }
    },
    {
      "type": "node",
      "id": 71307691,
      "lat": 53.3635787,
      "lon": -1.4334419,
      "tags": {
        "amenity": "pub",
        "name": "Arundel Ex Servicemens Club"
      }
    },
    {
      "type": "node",
      "id": 159088090,
      "lat": 53.3740998,
      "lon": -1.4651857,
      "tags": {
        "amenity": "pub",
        "name": "The Royal Standard"
      }
    },
    {
      "type": "node",
      "id": 163450172,
      "lat": 53.3941594,
      "lon": -1.5055749,
      "tags": {
        "amenity": "pub",
        "name": "Walkley Cottage",
        "wheelchair": "yes"
      }
    },
    {
      "type": "node",
      "id": 163456135,
      "lat": 53.3834468,
      "lon": -1.4880125,
      "tags": {
        "amenity": "pub",
        "created_by": "JOSM",
        "name": "Star And Garter"
      }
    },
    {
      "type": "node",
      "id": 163543802,
      "lat": 53.3894248,
      "lon": -1.4854637,
      "tags": {
        "amenity": "pub",
        "name": "The Office"
      }
    },
    {
      "type": "node",
      "id": 177883698,
      "lat": 53.3869726,
      "lon": -1.4829478,
      "tags": {
        "amenity": "pub",
        "name": "White Hart"
      }
    },
    {
      "type": "node",
      "id": 177914765,
      "lat": 53.3883779,
      "lon": -1.486453,
      "tags": {
        "amenity": "pub",
        "created_by": "JOSM",
        "name": "The White Rails"
      }
    },
    {
      "type": "node",
      "id": 222081664,
      "lat": 53.390617,
      "lon": -1.4588997,
      "tags": {
        "amenity": "pub",
        "name": "The East House"
      }
    },
    {
      "type": "node",
      "id": 224685776,
      "lat": 53.3919673,
      "lon": -1.4565773,
      "tags": {
        "amenity": "pub",
        "created_by": "JOSM",
        "name": "Staffordshire Arms"
      }
    },
    {
      "type": "node",
      "id": 224685815,
      "lat": 53.3927509,
      "lon": -1.4561329,
      "tags": {
        "amenity": "pub",
        "name": "Royal Oak"
      }
    },
    {
      "type": "node",
      "id": 224685835,
      "lat": 53.3931203,
      "lon": -1.4553873,
      "tags": {
        "amenity": "pub",
        "name": "Grapes Inn",
        "wheelchair": "no"
      }
    },
    {
      "type": "node",
      "id": 246692781,
      "lat": 53.374927,
      "lon": -1.4301861,
      "tags": {
        "amenity": "pub",
        "name": "Merrie Monk"
      }
    },
    {
      "type": "node",
      "id": 246693076,
      "lat": 53.3746403,
      "lon": -1.4393871,
      "tags": {
        "amenity": "pub",
        "created_by": "Potlatch 0.7"
      }
    },
    {
      "type": "node",
      "id": 246713837,
      "lat": 53.380813,
      "lon": -1.4675243,
      "tags": {
        "amenity": "pub",
        "name": "Crucible Corner",
        "website": "http://www.sheffieldtheatres.co.uk/your-visit/foodanddrink/cruciblecorner"
      }
    },
    {
      "type": "node",
      "id": 247105448,
      "lat": 53.3677444,
      "lon": -1.4975067,
      "tags": {
        "amenity": "pub",
        "name": "Porter Cottage"
      }
    },
    {
      "type": "node",
      "id": 247105471,
      "lat": 53.3674747,
      "lon": -1.498391,
      "tags": {
        "amenity": "pub",
        "created_by": "Potlatch 0.10f",
        "name": "Lescar Hotel"
      }
    },
    {
      "type": "node",
      "id": 249154136,
      "lat": 53.3629978,
      "lon": -1.4550608,
      "tags": {
        "amenity": "pub",
        "name": "Earl Marshall"
      }
    },
    {
      "type": "node",
      "id": 249494223,
      "lat": 53.384509,
      "lon": -1.4689098,
      "tags": {
        "amenity": "pub",
        "name": "Three Cranes"
      }
    },
    {
      "type": "node",
      "id": 249494768,
      "lat": 53.3817989,
      "lon": -1.4750219,
      "tags": {
        "amenity": "pub",
        "name": "The Grapes"
      }
    },
    {
      "type": "node",
      "id": 253873289,
      "lat": 53.4001337,
      "lon": -1.4655879,
      "tags": {
        "addr:housenumber": "448",
        "addr:postcode": "S3 9AY",
        "addr:street": "Pitsmoor Road",
        "amenity": "pub",
        "name": "The Pitsmoor"
      }
    },
    {
      "type": "node",
      "id": 255289192,
      "lat": 53.3813413,
      "lon": -1.4734663,
      "tags": {
        "amenity": "pub",
        "name": "Westways"
      }
    },
    {
      "type": "node",
      "id": 255428769,
      "lat": 53.3649048,
      "lon": -1.5014349,
      "tags": {
        "amenity": "pub",
        "name": "The Psalter",
        "source": "survey",
        "source:name": "photograph",
        "tourism": "hotel"
      }
    },
    {
      "type": "node",
      "id": 255902307,
      "lat": 53.402872,
      "lon": -1.5010432,
      "tags": {
        "amenity": "pub",
        "created_by": "Potlatch 0.8a",
        "name": "Shakey"
      }
    },
    {
      "type": "node",
      "id": 256273511,
      "lat": 53.3863807,
      "lon": -1.4636645,
      "tags": {
        "amenity": "pub",
        "name": "The Big Gun"
      }
    },
    {
      "type": "node",
      "id": 260097978,
      "lat": 53.3715544,
      "lon": -1.4876255,
      "tags": {
        "amenity": "pub",
        "name": "The Botanical"
      }
    },
    {
      "type": "node",
      "id": 260273041,
      "lat": 53.3987864,
      "lon": -1.491438,
      "tags": {
        "amenity": "pub",
        "name": "The Masons Arms"
      }
    },
    {
      "type": "node",
      "id": 265248575,
      "lat": 53.3678808,
      "lon": -1.473053,
      "tags": {
        "amenity": "pub",
        "name": "Golden Lion"
      }
    },
    {
      "type": "node",
      "id": 265618325,
      "lat": 53.377215,
      "lon": -1.5016688,
      "tags": {
        "addr:housenumber": "243-247",
        "addr:postcode": "S10 3BA",
        "addr:street": "Fulwood Road",
        "amenity": "pub",
        "food": "yes",
        "name": "The York",
        "real_ale": "4"
      }
    },
    {
      "type": "node",
      "id": 266962623,
      "lat": 53.3924851,
      "lon": -1.4348709,
      "tags": {
        "amenity": "pub",
        "created_by": "Potlatch 0.9a",
        "name": "The Carlton"
      }
    },
    {
      "type": "node",
      "id": 271394562,
      "lat": 53.3785506,
      "lon": -1.4988096,
      "tags": {
        "amenity": "pub",
        "created_by": "Potlatch 0.9c",
        "name": "Nottingham House"
      }
    },
    {
      "type": "node",
      "id": 282375498,
      "lat": 53.3998651,
      "lon": -1.4663953,
      "tags": {
        "addr:housenumber": "463",
        "addr:postcode": "S3 9AT",
        "addr:street": "Pitsmoor Road",
        "amenity": "pub",
        "name": "Bay Horse Inn"
      }
    },
    {
      "type": "node",
      "id": 317638088,
      "lat": 53.376415,
      "lon": -1.4843156,
      "tags": {
        "amenity": "pub",
        "name": "The Hanover"
      }
    },
    {
      "type": "node",
      "id": 330605880,
      "lat": 53.3669592,
      "lon": -1.4981653,
      "tags": {
        "amenity": "pub",
        "created_by": "osm2go v0.6-8debian1",
        "name": "Rileys",
        "sport": "snooker"
      }
    },
    {
      "type": "node",
      "id": 470951445,
      "lat": 53.3795651,
      "lon": -1.4555354,
      "tags": {
        "amenity": "pub",
        "disused": "yes",
        "name": "The New Inn"
      }
    },
    {
      "type": "node",
      "id": 741096339,
      "lat": 53.4033685,
      "lon": -1.5006658,
      "tags": {
        "amenity": "pub",
        "name": "Blue Ball"
      }
    },
    {
      "type": "node",
      "id": 1086169980,
      "lat": 53.3802486,
      "lon": -1.4795503,
      "tags": {
        "amenity": "pub",
        "name": "The Cavendish"
      }
    },
    {
      "type": "node",
      "id": 1348015118,
      "lat": 53.3616145,
      "lon": -1.5080767,
      "tags": {
        "amenity": "pub",
        "name": "The Banner Cross",
        "source": "photograph"
      }
    },
    {
      "type": "node",
      "id": 1474309900,
      "lat": 53.3892645,
      "lon": -1.4878606,
      "tags": {
        "amenity": "pub",
        "name": "Scarbrough Arms",
        "source": "local_knowledge"
      }
    },
    {
      "type": "node",
      "id": 1534348471,
      "lat": 53.3611936,
      "lon": -1.4930032,
      "tags": {
        "amenity": "pub",
        "name": "Union Hotel"
      }
    },
    {
      "type": "node",
      "id": 1534348477,
      "lat": 53.3586548,
      "lon": -1.4885481,
      "tags": {
        "amenity": "pub",
        "name": "Byron House"
      }
    },
    {
      "type": "node",
      "id": 1584729810,
      "lat": 53.3768683,
      "lon": -1.5004474,
      "tags": {
        "amenity": "pub",
        "name": "The Broomhill Tavern"
      }
    },
    {
      "type": "node",
      "id": 2286550430,
      "lat": 53.368877,
      "lon": -1.498213,
      "tags": {
        "addr:housenumber": "518-520",
        "addr:postcode": "S11 8PY",
        "addr:street": "Eccelsall rd",
        "amenity": "pub",
        "designation": "Open to public, club",
        "name": "Polish Catholic Club",
        "wifi": "free"
      }
    },
    {
      "type": "node",
      "id": 2429591197,
      "lat": 53.3828804,
      "lon": -1.4703441,
      "tags": {
        "amenity": "pub",
        "name": "Church House"
      }
    },
    {
      "type": "node",
      "id": 2431279860,
      "lat": 53.3665775,
      "lon": -1.4751469,
      "tags": {
        "addr:housenumber": "308-310",
        "addr:street": "London Road",
        "amenity": "pub",
        "name": "Bar ambasada PL"
      }
    },
    {
      "type": "node",
      "id": 2519937654,
      "lat": 53.3795199,
      "lon": -1.4771426,
      "tags": {
        "amenity": "pub",
        "disused:shop": "yes",
        "name": "Brewdog"
      }
    },
    {
      "type": "node",
      "id": 2738157819,
      "lat": 53.3811084,
      "lon": -1.4707967,
      "tags": {
        "amenity": "pub",
        "disused": "yes",
        "name": "The Bessemer"
      }
    },
    {
      "type": "node",
      "id": 3921003442,
      "lat": 53.369062,
      "lon": -1.4976629,
      "tags": {
        "addr:city": "Sheffield",
        "addr:housenumber": "516",
        "addr:postcode": "S11 8PY",
        "addr:street": "Ecclesall Road",
        "amenity": "pub",
        "email": "sheffield@pointingdog.co.uk",
        "name": "Pointing Dog",
        "phone": "0114 2660742",
        "website": "http://www.pointingdog.co.uk"
      }
    },
    {
      "type": "node",
      "id": 3978822786,
      "lat": 53.378952,
      "lon": -1.4723517,
      "tags": {
        "amenity": "pub",
        "microbrewery": "yes",
        "name": "Brewhouse",
        "note": "Apparently run by same people as Henry's"
      }
    },
    {
      "type": "way",
      "id": 30110330,
      "nodes": [
        331789798,
        331789799,
        331789800,
        331789802,
        331789798
      ],
      "tags": {
        "addr:city": "Sheffield",
        "addr:housenumber": "2-12",
        "addr:postcode": "S1 4GF",
        "addr:street": "Division Street",
        "amenity": "pub",
        "building": "yes",
        "listed_status": "Grade II",
        "name": "Lloyds Bar",
        "old_name": "The Sheffield Water Works Company",
        "opening_hours": "Mo-Su 08:00-23:00",
        "operator": "Wetherspoon",
        "toilets": "yes",
        "toilets:access": "public",
        "toilets:scheme": "Community Toilets Scheme",
        "website": "http://www.jdwetherspoon.co.uk/home/pubs/the-sheffield-waterworks-company",
        "wheelchair": "no",
        "wifi": "yes"
      }
    },
    {
      "type": "way",
      "id": 54513065,
      "nodes": [
        686571335,
        686571336,
        686571337,
        1041271365,
        1041271279,
        1041271390,
        686571338,
        1041271350,
        686571335
      ],
      "tags": {
        "addr:housenumber": "279",
        "amenity": "pub",
        "building": "yes",
        "name": "Firwood Cottage",
        "postal_code": "S6 2WA"
      }
    },
    {
      "type": "way",
      "id": 68456916,
      "nodes": [
        823581338,
        823581339,
        1066837892,
        1066837810,
        1066837878,
        1066837776,
        1066837727,
        823581340,
        823581343,
        1066837705,
        1066837981,
        823581346,
        1066837904,
        823581349,
        823581338
      ],
      "tags": {
        "amenity": "pub",
        "building": "yes",
        "name": "The Rawson Spring",
        "old_name": "The Deep End"
      }
    },
    {
      "type": "way",
      "id": 69007219,
      "nodes": [
        828313133,
        828313135,
        828313138,
        828313139,
        828313133
      ],
      "tags": {
        "addr:city": "Sheffield",
        "addr:postcode": "S1 4FS",
        "addr:street": "Carver Street",
        "amenity": "pub",
        "building": "yes",
        "listed_status": "Grade II",
        "name": "Walkabout",
        "operator": "Walkabout",
        "source": "OS OpenData StreetView",
        "toilets": "yes",
        "toilets:access": "public",
        "toilets:scheme": "Community Toilets Scheme",
        "website": "http://www.walkabout.eu.com/venues/walkabout-sheffield/"
      }
    },
    {
      "type": "way",
      "id": 82624252,
      "nodes": [
        961566981,
        1206763580,
        1206764366,
        961566983,
        961566984,
        961566988,
        961566981
      ],
      "tags": {
        "addr:city": "Sheffield",
        "addr:housenumber": "412",
        "addr:postcode": "S10 2JD",
        "addr:street": "Glossop Road",
        "amenity": "pub",
        "building": "yes",
        "name": "The Doctor's Orders",
        "old_name": "The West End",
        "phone": "0114 272 1214",
        "source": "OS OpenData StreetView"
      }
    },
    {
      "type": "way",
      "id": 87235935,
      "nodes": [
        3605867962,
        3605867963,
        1014362227,
        1014362275,
        1014362114,
        1014362297,
        1014362229,
        1014362134,
        1014362199,
        1014362207,
        1014362198,
        1014362204,
        3605867962
      ],
      "tags": {
        "amenity": "pub",
        "bicycle_parking": "informal",
        "building": "yes",
        "name": "The Blake Hotel",
        "opening_hours": "Mo-Su 12:00-23:30",
        "pub:children": "no"
      }
    },
    {
      "type": "way",
      "id": 87353702,
      "nodes": [
        1015831608,
        1015831586,
        1015831665,
        1015831662,
        1015831691,
        1015831588,
        1015831630,
        1015831668,
        1015831695,
        1056907749,
        1015831601,
        1015831632,
        1015831608
      ],
      "tags": {
        "addr:housenumber": "54-58",
        "addr:postcode": "S6 2UB",
        "addr:street": "Langsett Road",
        "amenity": "pub",
        "building": "yes",
        "contact:email": "hillsborough-h@btconnect.com",
        "contact:phone": "+44 (0)114 2322100",
        "contact:website": "http://www.hillsborough-hotel.co.uk/",
        "name": "Hillsborough Hotel",
        "opening_hours": "Crown Brewery",
        "real_ale": "yes",
        "toilets:wheelchair": "yes",
        "wheelchair": "limited",
        "wheelchair:description": "Entrance, main room, bar, and toilet are accessible. Back room and overnight accommodation not accessible."
      }
    },
    {
      "type": "way",
      "id": 89178632,
      "nodes": [
        1034484876,
        1034484701,
        1034484853,
        1034484755,
        1034484661,
        1034484810,
        1034484725,
        1034484770,
        1034484674,
        1034484876
      ],
      "tags": {
        "addr:housenumber": "601",
        "addr:postcode": "S6 2GA",
        "addr:street": "Penistone Road",
        "amenity": "pub",
        "building": "yes",
        "contact:phone": "+44 114 2349148",
        "contact:website": "http://www.castlerockbrewery.co.uk/site/?page_id=15",
        "food": "yes",
        "food_hours": "Mo 12:00-15:00,17:00-21:00; Tu-Sa 11:00-15:00,17:00-21:00; Su 12:00-16:00",
        "name": "The New Barrack Tavern",
        "opening_hours": "Mo 12:00-23:00; Tu-Th 11:00-23:00; Fr-Sa 11:00-00:00; Su 12:00-23:00",
        "operator": "Castle Rock Brewery",
        "real_ale": "yes"
      }
    },
    {
      "type": "way",
      "id": 90414248,
      "nodes": [
        1048907948,
        1048907876,
        1048907906,
        1048907974,
        1048907980,
        1048907802,
        1048907869,
        1048907898,
        1048907799,
        1048907793,
        1048907948
      ],
      "tags": {
        "amenity": "pub",
        "building": "yes",
        "name": "Rose House"
      }
    },
    {
      "type": "way",
      "id": 90431731,
      "nodes": [
        1049056378,
        1049056101,
        1049056004,
        1049055790,
        1049056324,
        1049056189,
        1049055722,
        1049056346,
        1049056135,
        1049056378
      ],
      "tags": {
        "amenity": "pub",
        "building": "yes",
        "name": "The Florist"
      }
    },
    {
      "type": "way",
      "id": 90443419,
      "nodes": [
        1049278696,
        1049279124,
        3090802206,
        1049278945,
        3090802209,
        1049278794,
        3090802205,
        3090802203,
        1049278696
      ],
      "tags": {
        "amenity": "pub",
        "building": "yes",
        "source": "Bing"
      }
    },
    {
      "type": "way",
      "id": 91795121,
      "nodes": [
        1066693960,
        1066694043,
        1066693935,
        1066694361,
        1066694236,
        1066694105,
        1066693976,
        1066693823,
        1066694284,
        1066694164,
        1066694032,
        1066693925,
        1066694342,
        1066694219,
        1066693821,
        1066694283,
        1066694162,
        1069288486,
        1069288493,
        1066694027,
        1066693960
      ],
      "tags": {
        "accommodation": "yes",
        "amenity": "pub",
        "building": "yes",
        "name": "The Queen's Ground",
        "wifi": "free"
      }
    },
    {
      "type": "way",
      "id": 92290494,
      "nodes": [
        1071231741,
        1071231575,
        1071231771,
        1071231700,
        1071231655,
        1071231802,
        1071231753,
        1071231687,
        1071231637,
        1071231741
      ],
      "tags": {
        "amenity": "pub",
        "building": "yes",
        "name": "The George IV"
      }
    },
    {
      "type": "way",
      "id": 92868903,
      "nodes": [
        1076859167,
        1076859145,
        1076859024,
        1076859054,
        1076859142,
        1076859167
      ],
      "tags": {
        "addr:housenumber": "15",
        "amenity": "pub",
        "building": "yes",
        "disused": "yes",
        "name": "The Durham Ox"
      }
    },
    {
      "type": "way",
      "id": 93499512,
      "nodes": [
        2519937593,
        247256822,
        1084003577,
        1084003903,
        1084003963,
        1084003822,
        2519937593
      ],
      "tags": {
        "addr:street": "London Road",
        "amenity": "pub",
        "building": "yes",
        "name": "The Cremorne",
        "source": "Bing"
      }
    },
    {
      "type": "way",
      "id": 93504421,
      "nodes": [
        1084030180,
        1084028498,
        1084028501,
        1084029481,
        1084029161,
        1084028860,
        1084030180
      ],
      "tags": {
        "addr:city": "Sheffield",
        "addr:street": "Hill Street",
        "amenity": "pub",
        "building": "yes",
        "name": "Railway Inn",
        "source": "Bing"
      }
    },
    {
      "type": "way",
      "id": 93509094,
      "nodes": [
        1084064789,
        1084065469,
        1084065728,
        1084065027,
        1084064789
      ],
      "tags": {
        "amenity": "pub",
        "building": "yes",
        "listed_status": "Grade II",
        "name": "Sheaf House",
        "source": "Bing"
      }
    },
    {
      "type": "way",
      "id": 93519373,
      "nodes": [
        1084210201,
        1084211329,
        1084211582,
        961573220,
        961573221,
        1084210900,
        1084210921,
        1084211022,
        1084210411,
        1084210642,
        1084212022,
        1084210201
      ],
      "tags": {
        "amenity": "pub",
        "building": "yes",
        "name": "South Sea"
      }
    },
    {
      "type": "way",
      "id": 93916522,
      "nodes": [
        1091831544,
        1223601329,
        1091832086,
        1091831750,
        1091831759,
        1091831841,
        1091831919,
        1091832159,
        1997327507,
        1997327509,
        1223601360,
        1997327505,
        1997327504,
        1997327503,
        1997327502,
        1091831544
      ],
      "tags": {
        "addr:city": "Sheffield",
        "addr:housenumber": "25",
        "addr:postcode": "S2 3AA",
        "addr:street": "Gleadless Road",
        "amenity": "pub",
        "building": "yes",
        "name": "The Sheaf View"
      }
    },
    {
      "type": "way",
      "id": 94579376,
      "nodes": [
        1098461154,
        1098461098,
        1098461623,
        1098461664,
        1098461007,
        1098460235,
        1098461005,
        1098461154
      ],
      "tags": {
        "amenity": "pub",
        "building": "yes",
        "disused": "yes",
        "name": "Waggon & Horses"
      }
    },
    {
      "type": "way",
      "id": 94579379,
      "nodes": [
        1098460563,
        1098460871,
        1098461123,
        1098460289,
        1098460925,
        1223622774,
        1098460810,
        1098460418,
        1098460291,
        1098460239,
        1098460254,
        1223622768,
        1223622801,
        1223622786,
        1223622791,
        1223622770,
        1223622797,
        1098461129,
        1223622769,
        1098460563
      ],
      "tags": {
        "amenity": "pub",
        "building": "yes",
        "name": "Victoria Hotel",
        "source": "Bing"
      }
    },
    {
      "type": "way",
      "id": 94582425,
      "nodes": [
        1098499312,
        1098498233,
        1098499453,
        1098498568,
        1098499160,
        1098498937,
        1098498070,
        1098497928,
        1098498518,
        1098499099,
        3407822124,
        1098499310,
        1098498429,
        1098499312
      ],
      "tags": {
        "addr:city": "Sheffield",
        "addr:housenumber": "106",
        "addr:postcode": "S8 9TZ",
        "addr:street": "Well Road",
        "amenity": "pub",
        "building": "yes",
        "name": "The Brothers Arms",
        "old_ref": "Ye Olde Shakespeare Inn",
        "source": "survey"
      }
    },
    {
      "type": "way",
      "id": 94582515,
      "nodes": [
        1098498500,
        1098498531,
        1098498547,
        1098499145,
        1098498893,
        1098499185,
        1098499204,
        1098498446,
        1098498500
      ],
      "tags": {
        "amenity": "pub",
        "building": "yes",
        "disused": "yes",
        "name": "The Ball Inn"
      }
    },
    {
      "type": "way",
      "id": 95246607,
      "nodes": [
        1104826273,
        1104826317,
        1540712484,
        1540712325,
        1104825970,
        1104825978,
        1540712376,
        1104826082,
        1104825821,
        1540734746,
        1104825989,
        1104825761,
        1104825768,
        1540734714,
        1104826098,
        1540712431,
        1104826273
      ],
      "tags": {
        "addr:city": "Sheffield",
        "addr:housenumber": "2",
        "addr:street": "Chesterfield Road",
        "amenity": "pub",
        "building": "yes",
        "listed_status": "Grade II",
        "name": "The Crown Inn"
      }
    },
    {
      "type": "way",
      "id": 95385892,
      "nodes": [
        1106094423,
        1106094271,
        1106094418,
        1204233275,
        1106094268,
        1106094423
      ],
      "tags": {
        "amenity": "pub",
        "building": "yes",
        "name": "Lord Nelson",
        "source": "Bing"
      }
    },
    {
      "type": "way",
      "id": 95387086,
      "nodes": [
        1106111182,
        1106111167,
        1106111309,
        1106111211,
        1106111182
      ],
      "tags": {
        "amenity": "pub",
        "building": "yes",
        "listed_status": "Grade II",
        "name": "The Howard"
      }
    },
    {
      "type": "way",
      "id": 96741044,
      "nodes": [
        1120229915,
        1120229952,
        1120229945,
        1120229907,
        2153219673,
        2153219674,
        2153219678,
        1120229954,
        2153219682,
        2153219680,
        1120229960,
        1120229925,
        1120229915
      ],
      "tags": {
        "addr:city": "Sheffield",
        "addr:housenumber": "39",
        "addr:postcode": "S1 2DD",
        "addr:street": "Silver Street Head",
        "amenity": "pub",
        "building": "yes",
        "listed_status": "Grade II",
        "name": "The Three Tuns",
        "source": "Bing",
        "wheelchair": "no",
        "wifi": "yes"
      }
    },
    {
      "type": "way",
      "id": 97398890,
      "nodes": [
        1128037705,
        1128037751,
        1128037767,
        1128037523,
        1128037407,
        1909129923,
        1128037790,
        1128037705
      ],
      "tags": {
        "amenity": "pub",
        "building": "yes",
        "name": "Roebuck Tavern",
        "source": "Bing"
      }
    },
    {
      "type": "way",
      "id": 97837912,
      "nodes": [
        1132447585,
        1132447649,
        1832084569,
        1132447719,
        1132447473,
        1132447450,
        1132447654,
        1132447452,
        1132447371,
        1832084423,
        1132447796,
        1832084415,
        1832084409,
        1832084377,
        1132447585
      ],
      "tags": {
        "addr:housename": "The Broadfield",
        "addr:housenumber": "452",
        "addr:street": "Abbeydale Road",
        "amenity": "pub",
        "building": "yes",
        "name": "Broadfield",
        "source": "Bing"
      }
    },
    {
      "type": "way",
      "id": 99489787,
      "nodes": [
        1150828042,
        1150828438,
        1150828109,
        1150828195,
        1150828054,
        1150828100,
        1150828133,
        1150828027,
        1150827997,
        1150827930,
        1150828229,
        1150828294,
        1150828473,
        1150828498,
        1150828477,
        1150828782,
        1150828130,
        1150828278,
        1150827952,
        1150828176,
        1150828042
      ],
      "tags": {
        "amenity": "pub",
        "building": "yes",
        "name": "Champs",
        "source": "Bing"
      }
    },
    {
      "type": "way",
      "id": 102346912,
      "nodes": [
        1181491667,
        1181491742,
        1181491445,
        1181491736,
        1181491667
      ],
      "tags": {
        "amenity": "pub",
        "building": "yes",
        "disused": "yes",
        "name": "Hare & Hounds"
      }
    },
    {
      "type": "way",
      "id": 103001978,
      "nodes": [
        1189361765,
        1189361171,
        1189359998,
        1189361874,
        1189361765
      ],
      "tags": {
        "amenity": "pub",
        "building": "yes",
        "name": "Nursery Tavern",
        "source": "Bing"
      }
    },
    {
      "type": "way",
      "id": 103023748,
      "nodes": [
        1189593053,
        3818859092,
        3818859093,
        1189593051,
        1189593043,
        1189593053
      ],
      "tags": {
        "amenity": "pub",
        "building": "yes",
        "name": "Mulberry Tavern"
      }
    },
    {
      "type": "way",
      "id": 103062714,
      "nodes": [
        1189973392,
        1189973394,
        1189973388,
        1189973496,
        1189973386,
        1189973396,
        1189973473,
        1189994606,
        1189973446,
        1189994588,
        1189973457,
        1189973482,
        1189973438,
        1189973477,
        1189973448,
        1189973392
      ],
      "tags": {
        "addr:housenumber": "103-107",
        "addr:street": "Norfolk Street",
        "amenity": "pub",
        "building": "yes",
        "listed_status": "Grade II",
        "name": "Old Monk"
      }
    },
    {
      "type": "way",
      "id": 103085182,
      "nodes": [
        1190184558,
        1190184490,
        1190184527,
        1190184524,
        1190184486,
        1190184461,
        1190184531,
        1190184510,
        1190184547,
        1190184487,
        1190184558
      ],
      "tags": {
        "amenity": "pub",
        "building": "yes",
        "name": "The Museum",
        "wheelchair": "no"
      }
    },
    {
      "type": "way",
      "id": 103463925,
      "nodes": [
        1194647141,
        1194644211,
        1194647131,
        1194647134,
        1194647133,
        1194647136,
        1942541349,
        1194647138,
        1194647141
      ],
      "tags": {
        "amenity": "pub",
        "building": "yes",
        "name": "Yorkshireman Rock Bar",
        "website": "http://yorkshiremansheffield.co.uk/"
      }
    },
    {
      "type": "way",
      "id": 103691610,
      "nodes": [
        1197136089,
        1197136095,
        1197134150,
        1197136097,
        1197136093,
        1197136091,
        1197136089
      ],
      "tags": {
        "addr:housenumber": "12-18",
        "addr:street": "Cambridge Street",
        "amenity": "pub",
        "building": "yes",
        "name": "The Benjamin Hunstman",
        "operator": "J D Wetherspoon"
      }
    },
    {
      "type": "way",
      "id": 103805916,
      "nodes": [
        1198343294,
        1198343284,
        1198343275,
        1198343263,
        2161526901,
        1198347113,
        2161526898,
        2161526888,
        2161526878,
        1198343311,
        1198343282,
        1198343291,
        1198343247,
        1198343264,
        1198343295,
        1198343294
      ],
      "tags": {
        "addr:city": "Sheffield",
        "addr:housenumber": "1-3",
        "addr:postcode": "S1 2GH",
        "addr:street": "Market Place",
        "amenity": "pub",
        "building": "yes",
        "listed_status": "Grade II",
        "name": "The Bankers Draft",
        "old_name": "Midland Bank",
        "opening_hours": "Mo-Th,Su 07:00-00:00; Fr-Sa 07:00-01:00",
        "operator": "J D Wetherspoon",
        "toilets": "yes",
        "toilets:access": "public",
        "toilets:scheme": "Community Toilets Scheme",
        "website": "http://www.jdwetherspoon.co.uk/home/pubs/the-bankers-draft-sheffield",
        "wifi": "yes"
      }
    },
    {
      "type": "way",
      "id": 103908789,
      "nodes": [
        1199400756,
        1199400753,
        2155006239,
        1199400747,
        1199400746,
        1844666435,
        1199400740,
        1199400754,
        1199400748,
        1844666444,
        1844666454,
        1844666455,
        1844666456,
        1199400756
      ],
      "tags": {
        "amenity": "pub",
        "building": "yes",
        "listed_status": "Grade II",
        "name": "The Graduate",
        "old_name": "The Surrey",
        "wheelchair": "no"
      }
    },
    {
      "type": "way",
      "id": 104012722,
      "nodes": [
        1200382211,
        248817729,
        1200382186,
        1200382200,
        1200382196,
        1200382169,
        1200382165,
        1200382182,
        1200382188,
        1200382177,
        1200382164,
        1200382204,
        1200382211
      ],
      "tags": {
        "amenity": "pub",
        "building": "yes",
        "name": "The Globe"
      }
    },
    {
      "type": "way",
      "id": 104018460,
      "nodes": [
        1200433544,
        1200433574,
        1200433569,
        1200433566,
        1200433562,
        1200433564,
        1200433541,
        1200433548,
        1200433544
      ],
      "tags": {
        "addr:housenumber": "109",
        "addr:postcode": "S1 2ND",
        "addr:street": "Charles Street",
        "amenity": "pub",
        "building": "yes",
        "contact:phone": "0114 272 4997",
        "name": "Red Lion",
        "wheelchair": "no"
      }
    },
    {
      "type": "way",
      "id": 104028036,
      "nodes": [
        1200549645,
        1200549666,
        1200549642,
        1200549641,
        1200549622,
        1200549636,
        1200549649,
        1200549645
      ],
      "tags": {
        "addr:city": "Sheffield",
        "addr:housenumber": "86",
        "addr:postcode": "S1 2BS",
        "addr:street": "Brown Street",
        "amenity": "pub",
        "building": "yes",
        "contact:phone": "0114 272 9003",
        "name": "Rutland Arms",
        "real_ale": "yes"
      }
    },
    {
      "type": "way",
      "id": 104391809,
      "nodes": [
        1204384714,
        1204384728,
        1204385242,
        1204384717,
        1204384712,
        1204384713,
        1204384716,
        1204384714
      ],
      "tags": {
        "amenity": "pub",
        "building": "yes",
        "name": "Tap & Barrel"
      }
    },
    {
      "type": "way",
      "id": 104525558,
      "nodes": [
        1205928074,
        1205928080,
        1205928069,
        1205928111,
        1205928119,
        1205928077,
        1205928065,
        1205928083,
        1205928085,
        1205928074
      ],
      "tags": {
        "amenity": "pub",
        "building": "yes",
        "name": "The Washington",
        "real_ale": "yes"
      }
    },
    {
      "type": "way",
      "id": 104697066,
      "nodes": [
        1207672579,
        1207672926,
        1207672643,
        1207672809,
        1207672581,
        1207672680,
        1207672570,
        1207672670,
        1207672882,
        1207672785,
        1207672835,
        1207672579
      ],
      "tags": {
        "amenity": "pub",
        "building": "yes",
        "disused": "yes",
        "name": "Ye Old Harrow"
      }
    },
    {
      "type": "way",
      "id": 104699141,
      "nodes": [
        1207690540,
        1207694416,
        1207694434,
        1207694431,
        1207694437,
        1207694413,
        1207690540
      ],
      "tags": {
        "amenity": "pub",
        "building": "yes",
        "disused": "yes",
        "name": "The Cannon"
      }
    },
    {
      "type": "way",
      "id": 105010631,
      "nodes": [
        1210631434,
        1210632162,
        1210633620,
        1210631785,
        1210633838,
        1210631393,
        1210632238,
        1210633014,
        1210633602,
        1210631434
      ],
      "tags": {
        "amenity": "pub",
        "building": "yes",
        "name": "The Place",
        "source": "Bing"
      }
    },
    {
      "type": "way",
      "id": 106551111,
      "nodes": [
        1225665498,
        1225665102,
        1225665863,
        1225665401,
        1225665533,
        1225665326,
        1225664912,
        1225665498
      ],
      "tags": {
        "amenity": "pub",
        "building": "yes",
        "name": "Maida Vale",
        "old_name": "The Saddle",
        "source": "Bing"
      }
    },
    {
      "type": "way",
      "id": 106551141,
      "nodes": [
        1225665504,
        1225665058,
        1225665745,
        1225665541,
        1225665504
      ],
      "tags": {
        "amenity": "pub",
        "building": "yes",
        "name": "Dada"
      }
    },
    {
      "type": "way",
      "id": 106864386,
      "nodes": [
        1228880444,
        1228880474,
        1228880448,
        1228880498,
        1228880499,
        1228880384,
        1228880470,
        1228880400,
        1228880444
      ],
      "tags": {
        "amenity": "pub",
        "building": "yes",
        "name": "The Shakespeare"
      }
    },
    {
      "type": "way",
      "id": 107038761,
      "nodes": [
        1230601711,
        1230601850,
        1230601776,
        1230601874,
        1230601695,
        1230601657,
        1230601871,
        1230601902,
        1230601900,
        1230601890,
        1230601711
      ],
      "tags": {
        "addr:housenumber": "23",
        "addr:postcode": "S3 8SA",
        "addr:street": "Alma Street",
        "amenity": "pub",
        "building": "yes",
        "contact:phone": "0114 249 4801",
        "diet:vegetarian": "yes",
        "food": "yes",
        "name": "The Fat Cat",
        "real_ale": "yes"
      }
    },
    {
      "type": "way",
      "id": 107079443,
      "nodes": [
        1231094567,
        1231094876,
        1231094970,
        1231093951,
        1231094416,
        1231094191,
        1231094567
      ],
      "tags": {
        "amenity": "pub",
        "building": "yes",
        "name": "Kelham Island Tavern"
      }
    },
    {
      "type": "way",
      "id": 107200589,
      "nodes": [
        1232492580,
        1232492578,
        1232492576,
        1232492517,
        1232492523,
        1232492580
      ],
      "tags": {
        "amenity": "pub",
        "building": "yes",
        "name": "The Red House"
      }
    },
    {
      "type": "way",
      "id": 109300872,
      "nodes": [
        1251658842,
        1251658817,
        1251658814,
        1251658854,
        1251658842
      ],
      "tags": {
        "amenity": "pub",
        "building": "yes",
        "name": "The Harlequin",
        "old_name": "The Manchester"
      }
    },
    {
      "type": "way",
      "id": 110445731,
      "nodes": [
        1261235836,
        1261235633,
        1261235662,
        1261236090,
        1261235773,
        1261236125,
        1261236123,
        1261236004,
        1261235836
      ],
      "tags": {
        "amenity": "pub",
        "building": "yes",
        "name": "The Masons Arms",
        "source": "Bing"
      }
    },
    {
      "type": "way",
      "id": 111849394,
      "nodes": [
        1273405986,
        1273406134,
        1273406493,
        1273405975,
        1273405932,
        1273405948,
        1273405934,
        1273406384,
        1273405951,
        1273405937,
        1273405986
      ],
      "tags": {
        "addr:city": "Sheffield",
        "addr:housenumber": "49-51",
        "addr:postcode": "S10 1GF",
        "addr:street": "Commonside",
        "amenity": "pub",
        "building": "yes",
        "name": "Hallamshire House",
        "source": "Bing"
      }
    },
    {
      "type": "way",
      "id": 112875630,
      "nodes": [
        1281957287,
        1281957441,
        1281957491,
        1281957472,
        1281956906,
        1281957454,
        1281957469,
        1281957287
      ],
      "tags": {
        "amenity": "pub",
        "building": "yes",
        "name": "Closed Shop",
        "smoking": "no",
        "source": "Bing"
      }
    },
    {
      "type": "way",
      "id": 115307121,
      "nodes": [
        1303351994,
        1303352009,
        1303352014,
        1303352087,
        1303352099,
        1303351983,
        1303352048,
        1303352012,
        1303351994
      ],
      "tags": {
        "amenity": "pub",
        "building": "yes",
        "name": "The Wellington",
        "old_name": "The Cask and Cutler",
        "postal_code": "S3 7EQ",
        "source": "Bing"
      }
    },
    {
      "type": "way",
      "id": 116508977,
      "nodes": [
        1313237533,
        1313237519,
        1313237556,
        1313237489,
        1313237624,
        1313237526,
        1313237533
      ],
      "tags": {
        "amenity": "pub",
        "building": "yes",
        "name": "Palm Tree Inn",
        "source": "Bing"
      }
    },
    {
      "type": "way",
      "id": 117174482,
      "nodes": [
        1319869845,
        1319869796,
        1319869968,
        1319869856,
        1319869845
      ],
      "tags": {
        "addr:housenumber": "75",
        "addr:street": "London Road",
        "amenity": "pub",
        "building": "yes",
        "listed_status": "Grade II",
        "name": "The Bell Jar"
      }
    },
    {
      "type": "way",
      "id": 117174486,
      "nodes": [
        1319869843,
        1319869793,
        1319869857,
        1319869853,
        1319869843
      ],
      "tags": {
        "amenity": "pub",
        "building": "yes",
        "name": "The Sportsman"
      }
    },
    {
      "type": "way",
      "id": 117174529,
      "nodes": [
        1319869871,
        1319869933,
        1319869775,
        1319869966,
        1319869959,
        1319869765,
        1319869810,
        1319869760,
        1319869871
      ],
      "tags": {
        "amenity": "pub",
        "building": "yes",
        "name": "Red Lion"
      }
    },
    {
      "type": "way",
      "id": 117175717,
      "nodes": [
        1319878418,
        1860329265,
        1860329312,
        1319878398,
        1319878378,
        1319878390,
        1319878414,
        1860329101,
        1860329122,
        1319878418
      ],
      "tags": {
        "addr:housenumber": "13",
        "addr:postcode": "S2 4LA",
        "addr:street": "London Road",
        "amenity": "pub",
        "building": "yes",
        "name": "The Scholar"
      }
    },
    {
      "type": "way",
      "id": 118142076,
      "nodes": [
        1329399631,
        1329399613,
        1329399608,
        1329399633,
        1329399603,
        1329399639,
        1329399626,
        1329399634,
        1329399605,
        1329399618,
        1329399615,
        1329399628,
        1329399621,
        1329399630,
        1329399625,
        1329399638,
        1329399631
      ],
      "tags": {
        "addr:housenumber": "42-46",
        "addr:street": "Campo Lane",
        "amenity": "pub",
        "building": "yes",
        "name": "The Wig and Pen"
      }
    },
    {
      "type": "way",
      "id": 118300053,
      "nodes": [
        1052655930,
        1330684132,
        1846803337,
        1846803342,
        1846803341,
        1052656208,
        1052656194,
        1052655930
      ],
      "tags": {
        "addr:city": "Sheffield",
        "addr:housenumber": "94",
        "addr:postcode": "S1 4GF",
        "addr:street": "Division Street",
        "amenity": "pub",
        "building": "yes",
        "contact:phone": "0114 272 1280",
        "name": "Frog & Parrot",
        "operator": "Greene King",
        "toilets": "yes",
        "toilets:access": "public",
        "toilets:scheme": "Community Toilets Scheme",
        "website": "http://gkpubs.co.uk/pubs-in-sheffield/frog-and-parrot-pub/",
        "wifi": "yes"
      }
    },
    {
      "type": "way",
      "id": 119208387,
      "nodes": [
        1340007448,
        1340007486,
        1340007476,
        1340007488,
        1340007477,
        1340007446,
        1340007453,
        1340007451,
        1340007440,
        1340007496,
        1340007448
      ],
      "tags": {
        "amenity": "pub",
        "building": "yes",
        "disused": "yes",
        "name": "Gower Arms",
        "source": "Bing"
      }
    },
    {
      "type": "way",
      "id": 119962481,
      "nodes": [
        1346269375,
        1346269277,
        1346269325,
        1346269394,
        1346269249,
        1346269270,
        1346269375
      ],
      "tags": {
        "amenity": "pub",
        "building": "yes",
        "name": "Riverside"
      }
    },
    {
      "type": "way",
      "id": 121911256,
      "nodes": [
        1363551261,
        1363551099,
        1363551064,
        1363551041,
        1363551205,
        1363551060,
        1363551261
      ],
      "tags": {
        "amenity": "pub",
        "building": "yes",
        "name": "Sportsman",
        "source": "Bing"
      }
    },
    {
      "type": "way",
      "id": 137552610,
      "nodes": [
        1508690329,
        1508690268,
        1508690245,
        1508690698,
        1508690626,
        1508690351,
        1508690326,
        1508690218,
        1508690329
      ],
      "tags": {
        "addr:city": "Sheffield",
        "amenity": "pub",
        "building": "yes",
        "name": "Cricketers' Arms"
      }
    },
    {
      "type": "way",
      "id": 137704422,
      "nodes": [
        1122288481,
        1122289453,
        1510114257,
        1510114290,
        1007402112,
        1122288481
      ],
      "tags": {
        "amenity": "pub",
        "name": "Penny Black"
      }
    },
    {
      "type": "way",
      "id": 138159433,
      "nodes": [
        1514547905,
        1514547975,
        1514548058,
        1514547478,
        1514547761,
        1514547913,
        1514547540,
        1514547744,
        1514547905
      ],
      "tags": {
        "amenity": "pub",
        "building": "yes",
        "listed_status": "Grade II*",
        "name": "Old Queen's Head"
      }
    },
    {
      "type": "way",
      "id": 140651683,
      "nodes": [
        1540553821,
        1540553740,
        1540553690,
        1540553827,
        1540553725,
        1540553776,
        1540553802,
        1540553758,
        1540553792,
        1540553817,
        1540553821
      ],
      "tags": {
        "addr:city": "Sheffield",
        "addr:housenumber": "615",
        "addr:postcode": "S2 4HT",
        "addr:street": "London Road",
        "amenity": "pub",
        "building": "yes",
        "listed_status": "Grade II",
        "name": "The White Lion"
      }
    },
    {
      "type": "way",
      "id": 140678000,
      "nodes": [
        1540712393,
        1540712344,
        1540712340,
        1540712497,
        1540712454,
        1540712329,
        1540712488,
        1540712450,
        1540712360,
        1540712519,
        1540712474,
        1540712432,
        1540712428,
        1540712393
      ],
      "tags": {
        "addr:city": "Sheffield",
        "addr:housenumber": "653",
        "addr:street": "London Road",
        "amenity": "pub",
        "building": "yes",
        "name": "The Red Lion"
      }
    },
    {
      "type": "way",
      "id": 145130864,
      "nodes": [
        1585801500,
        1585801503,
        1585801512,
        1585801510,
        1585801509,
        1296093018,
        1296093655,
        1585801498,
        1585801501,
        1585801500
      ],
      "tags": {
        "amenity": "pub",
        "building": "yes",
        "name": "The Princess Royal"
      }
    },
    {
      "type": "way",
      "id": 147176526,
      "nodes": [
        1603904905,
        1603904917,
        1603904919,
        1603904913,
        1603904885,
        1603904905
      ],
      "tags": {
        "addr:street": "London Road",
        "amenity": "pub",
        "building": "yes",
        "disused": "yes",
        "name": "The Tramway"
      }
    },
    {
      "type": "way",
      "id": 147176538,
      "nodes": [
        1083992510,
        1603904929,
        1603904936,
        1603905035,
        1603905047,
        1603905076,
        1603905064,
        1603905040,
        1083992510
      ],
      "tags": {
        "addr:street": "London Road",
        "amenity": "pub",
        "building": "yes",
        "name": "Barrel Inn"
      }
    },
    {
      "type": "way",
      "id": 162195177,
      "nodes": [
        1741258082,
        1741258078,
        1741258089,
        1741258091,
        1741258082
      ],
      "tags": {
        "amenity": "pub",
        "building": "yes",
        "disused": "yes",
        "name": "The Queen's Hotel"
      }
    },
    {
      "type": "way",
      "id": 170421427,
      "nodes": [
        1815617152,
        1815617153,
        1815617154,
        1815617176,
        1815617177,
        1815617203,
        1815617202,
        1815617199,
        1815617152
      ],
      "tags": {
        "addr:city": "Sheffield",
        "addr:housenumber": "3",
        "addr:postcode": "S3 8LX",
        "addr:street": "Castle Green",
        "amenity": "pub",
        "building": "yes",
        "name": "Hen & Chickens"
      }
    },
    {
      "type": "way",
      "id": 170424217,
      "nodes": [
        1815651969,
        1815651810,
        1204383266,
        1122289380,
        1815651969
      ],
      "tags": {
        "addr:housenumber": "26",
        "addr:postcode": "S1 2AL",
        "amenity": "pub",
        "building": "yes",
        "name": "Norfolk Arms",
        "phone": "0114 252 1920"
      }
    },
    {
      "type": "way",
      "id": 170426781,
      "nodes": [
        1815684776,
        1815684774,
        1815684773,
        1815684772,
        1815684770,
        1815684769,
        1815684767,
        1815684765,
        1815684762,
        1815684752,
        1815684755,
        1815684759,
        1815684761,
        1815684776
      ],
      "tags": {
        "amenity": "pub",
        "building": "yes",
        "disused": "yes",
        "name": "The Alexandra"
      }
    },
    {
      "type": "way",
      "id": 172497715,
      "nodes": [
        1834007019,
        1834007002,
        1834007411,
        1834007465,
        1834007495,
        1834007387,
        1160222296,
        1834007019
      ],
      "tags": {
        "amenity": "pub",
        "building": "yes",
        "food": "yes",
        "name": "The Devonshire Cat",
        "operator": "Abbeydale",
        "real_ale": "3 or so from Abbeydale, lots of others"
      }
    },
    {
      "type": "way",
      "id": 173985432,
      "nodes": [
        1847266062,
        1847266171,
        1847266187,
        1847266173,
        1847266164,
        1847266119,
        1847266080,
        1847266019,
        1847265925,
        1847266036,
        1847266062
      ],
      "tags": {
        "amenity": "pub",
        "building": "yes",
        "description": "Cocktail Bar",
        "name": "Be At One"
      }
    },
    {
      "type": "way",
      "id": 173985448,
      "nodes": [
        1847266351,
        1847266315,
        1847266298,
        1847266292,
        1847266396,
        1847266406,
        1847266391,
        1847266369,
        1847266351
      ],
      "tags": {
        "addr:housenumber": "149",
        "addr:postcode": "S1 4EW",
        "addr:street": "West Street",
        "amenity": "pub",
        "building": "yes",
        "food": "yes",
        "name": "The Wick At Both Ends",
        "phone": "0114 278 8288",
        "real_ale": "yes",
        "website": "http://www.thewickatbothends.co.uk/"
      }
    },
    {
      "type": "way",
      "id": 173994223,
      "nodes": [
        1847372401,
        1847372532,
        1847372527,
        1847372520,
        1847372495,
        1847372487,
        1847372480,
        1847372310,
        1847372401
      ],
      "tags": {
        "addr:city": "Sheffield",
        "addr:housenumber": "240",
        "addr:street": "West Street",
        "amenity": "pub",
        "building": "yes",
        "name": "The Beehive",
        "old_name": "Bar S1"
      }
    },
    {
      "type": "way",
      "id": 174111099,
      "nodes": [
        1848409287,
        1848409219,
        1848409225,
        1848409342,
        1848409372,
        1848409363,
        1848409355,
        1848409287
      ],
      "tags": {
        "amenity": "pub",
        "food": "yes",
        "name": "The Red Deer",
        "real_ale": "7 or 8 beers",
        "real_fire": "yes"
      }
    },
    {
      "type": "way",
      "id": 174174037,
      "nodes": [
        1848913019,
        1848913012,
        1848913017,
        1848913014,
        1848913018,
        1848913353,
        1848913367,
        1848913446,
        1848913437,
        1848913391,
        1848913430,
        1848913345,
        1848913238,
        1848913165,
        3655829520,
        1848913011,
        1848913016,
        1848913019
      ],
      "tags": {
        "amenity": "pub",
        "building": "yes",
        "name": "The Hop"
      }
    },
    {
      "type": "way",
      "id": 174188962,
      "nodes": [
        1849053841,
        1849053856,
        1849053908,
        1849053906,
        1849053847,
        1849053841
      ],
      "tags": {
        "amenity": "pub",
        "building": "yes",
        "description:floor": "tiles",
        "name": "The Bath Hotel",
        "operator": "Thornbridge",
        "real_ale": "3 or 4 Thornbridge + 1 (or more) others"
      }
    },
    {
      "type": "way",
      "id": 174189082,
      "nodes": [
        1849054208,
        1849054119,
        1849054118,
        1849054093,
        1849054095,
        1849054066,
        1849054067,
        1849054035,
        1849054030,
        1849054062,
        1849054094,
        1849054090,
        1849054172,
        1849054194,
        1849054198,
        1849054200,
        1849054208
      ],
      "tags": {
        "addr:city": "Sheffield",
        "addr:housenumber": "217-231",
        "addr:postcode": "S10 2GW",
        "addr:street": "Glossop Road",
        "amenity": "pub",
        "building": "yes",
        "name": "The Swim Inn",
        "opening_hours": "Mo-Su 09:00-23:00",
        "operator": "J D Wetherspoon",
        "toilets": "yes",
        "toilets:access": "public",
        "toilets:scheme": "Community Toilets Scheme",
        "website": "http://www.jdwetherspoon.co.uk/home/pubs/the-swim-inn",
        "wifi": "yes"
      }
    },
    {
      "type": "way",
      "id": 175593655,
      "nodes": [
        1189994582,
        1861625493,
        1189994584,
        1189994592,
        1189994579,
        1189994587,
        1189994581,
        1190012409,
        1861625478,
        1190012506,
        1190012346,
        1861625441,
        1190012428,
        1189994588,
        1189973446,
        1189994606,
        1189994582
      ],
      "tags": {
        "amenity": "pub",
        "building": "yes",
        "listed_status": "Grade II",
        "name": "Brown Bear",
        "operator": "Samuel Smith"
      }
    },
    {
      "type": "way",
      "id": 178220562,
      "nodes": [
        1885909557,
        1885909511,
        1885909513,
        1885909507,
        1885909504,
        1885909497,
        1885909484,
        1885909515,
        1885909529,
        1885909539,
        1885909548,
        1885909554,
        1885909558,
        1885909562,
        1885909561,
        1885909559,
        1885909557
      ],
      "tags": {
        "amenity": "pub",
        "building": "yes",
        "name": "The Sheaf Island"
      }
    },
    {
      "type": "way",
      "id": 178244571,
      "nodes": [
        1886161001,
        1886160994,
        1084003696,
        1084003795,
        1084003699,
        1084003818,
        1886161001
      ],
      "tags": {
        "addr:housenumber": "17",
        "addr:postcode": "S11 8FJ",
        "addr:street": "Cemetery Road",
        "amenity": "pub",
        "building": "yes",
        "name": "The Beer Engine",
        "opening_hours": "Mon-Thu 16-23, Fri-Sat 12-00, Sun 12-23",
        "smoking": "no",
        "website": "http://www.beerenginesheffield.com/"
      }
    },
    {
      "type": "way",
      "id": 178278884,
      "nodes": [
        1886467114,
        1886467105,
        1886467112,
        1886467126,
        1886467121,
        1886467135,
        1886467136,
        1886467138,
        1886467151,
        1886467140,
        1886467178,
        1886467137,
        1886467139,
        1886467134,
        1886467133,
        1886467130,
        1886467129,
        1886467128,
        1886467127,
        1886467122,
        1886467114
      ],
      "tags": {
        "amenity": "pub",
        "building": "yes",
        "name": "The University Arms",
        "wheelchair": "no",
        "wifi": "yes"
      }
    },
    {
      "type": "way",
      "id": 178954916,
      "nodes": [
        1893107071,
        1893107026,
        1893107022,
        1893107064,
        1893107071
      ],
      "tags": {
        "addr:street": "London Road",
        "amenity": "pub",
        "building": "yes",
        "name": "Barry's Bar",
        "old_name": "Pheasant Inn"
      }
    },
    {
      "type": "way",
      "id": 179115939,
      "nodes": [
        1894546272,
        1894546264,
        1894546263,
        1894546274,
        1894546279,
        1894546269,
        1894546272
      ],
      "tags": {
        "addr:housenumber": "23",
        "addr:postcode": "S1 4QR",
        "addr:street": "Furnival Gate",
        "amenity": "pub",
        "building": "yes",
        "name": "The 'Rockin' Chair",
        "website": "https://twitter.com/__RockingChair"
      }
    },
    {
      "type": "way",
      "id": 206151282,
      "nodes": [
        1198343265,
        2161526912,
        1198343297,
        2161526920,
        2161526915,
        1198343275,
        1198343263,
        2161526903,
        1198343265
      ],
      "tags": {
        "addr:housenumber": "2",
        "addr:street": "Hartshead",
        "amenity": "pub",
        "building": "yes",
        "name": "Dove & Rainbow"
      }
    },
    {
      "type": "way",
      "id": 219467091,
      "nodes": [
        2286175570,
        2286175565,
        2286175564,
        2286175583,
        2286175606,
        2286175602,
        2286175610,
        2286175603,
        2286175600,
        2286175597,
        2286175598,
        2286175592,
        2286175588,
        2286175586,
        2286175575,
        2286175578,
        2286175574,
        2286175573,
        2286175570
      ],
      "tags": {
        "addr:housename": "Broombank House",
        "amenity": "pub",
        "building": "yes",
        "food": "yes",
        "name": "The Francis Newton",
        "operator": "Wetherspoon",
        "real_ale": "yes"
      }
    },
    {
      "type": "way",
      "id": 231945752,
      "nodes": [
        1225665126,
        1225665278,
        1225665481,
        1225665520,
        1225665880,
        2402668899,
        1225665126
      ],
      "tags": {
        "amenity": "pub",
        "name": "Dog & Partridge"
      }
    },
    {
      "type": "way",
      "id": 244705120,
      "nodes": [
        1083992452,
        1083992540,
        1083992731,
        247256918,
        1083992440,
        1083992708,
        1083992492,
        1083992452
      ],
      "tags": {
        "addr:street": "London Road",
        "amenity": "pub",
        "building": "yes",
        "name": "The Old Crown Inn",
        "source": "Bing"
      }
    },
    {
      "type": "way",
      "id": 259066536,
      "nodes": [
        1197134137,
        2643948039,
        2643948038,
        1935353730,
        1935353778,
        1935353764,
        1935353772,
        1935353755,
        1935353812,
        1197134157,
        1197134137
      ],
      "tags": {
        "addr:housenumber": "24",
        "addr:street": "Cambridge Street",
        "amenity": "pub",
        "building": "yes",
        "name": "The Sportsman"
      }
    },
    {
      "type": "way",
      "id": 279192170,
      "nodes": [
        1232427005,
        2834274804,
        1232427018,
        1232426950,
        1232427046,
        1232427005
      ],
      "tags": {
        "amenity": "pub",
        "building": "yes",
        "name": "The Riverside"
      }
    },
    {
      "type": "way",
      "id": 288347362,
      "nodes": [
        1226870509,
        2919050481,
        1226870506,
        1226870502,
        1226870553,
        1226870509
      ],
      "tags": {
        "amenity": "pub",
        "building": "yes",
        "name": "West Street Live"
      }
    },
    {
      "type": "way",
      "id": 339930119,
      "nodes": [
        3471289382,
        3471289383,
        3471289384,
        3471289385,
        3471289386,
        3471289387,
        3471289382
      ],
      "tags": {
        "addr:city": "Sheffield",
        "addr:housenumber": "1",
        "addr:postcode": "S10 1GA",
        "addr:street": "Commonside",
        "amenity": "pub",
        "building": "yes",
        "name": "The Springvale"
      }
    },
    {
      "type": "way",
      "id": 442064051,
      "nodes": [
        1477582142,
        1477582101,
        4391843007,
        1477582251,
        1477582265,
        1122329109,
        4391843008,
        1122329147,
        1679822219,
        1477582142
      ],
      "tags": {
        "amenity": "pub",
        "indoor": "area",
        "level": "0",
        "name": "Sheffield Tap",
        "room": "pub",
        "wheelchair": "limited"
      }
    },
    {
      "type": "node",
      "id": 1832084377,
      "lat": 53.3581224,
      "lon": -1.4828014
    },
    {
      "type": "node",
      "id": 1832084409,
      "lat": 53.3581462,
      "lon": -1.482783
    },
    {
      "type": "node",
      "id": 1832084415,
      "lat": 53.3581977,
      "lon": -1.482961
    },
    {
      "type": "node",
      "id": 1832084423,
      "lat": 53.3582469,
      "lon": -1.4829409
    },
    {
      "type": "node",
      "id": 1832084569,
      "lat": 53.3583047,
      "lon": -1.4825757
    },
    {
      "type": "node",
      "id": 1132447371,
      "lat": 53.3582075,
      "lon": -1.4828017
    },
    {
      "type": "node",
      "id": 1132447450,
      "lat": 53.3583033,
      "lon": -1.4827651
    },
    {
      "type": "node",
      "id": 1132447452,
      "lat": 53.3582227,
      "lon": -1.4827896
    },
    {
      "type": "node",
      "id": 1132447473,
      "lat": 53.3582942,
      "lon": -1.4827328
    },
    {
      "type": "node",
      "id": 1132447585,
      "lat": 53.3580886,
      "lon": -1.48268
    },
    {
      "type": "node",
      "id": 1132447649,
      "lat": 53.3582956,
      "lon": -1.4825176
    },
    {
      "type": "node",
      "id": 1132447654,
      "lat": 53.3582319,
      "lon": -1.4828219
    },
    {
      "type": "node",
      "id": 1132447719,
      "lat": 53.3583255,
      "lon": -1.482708
    },
    {
      "type": "node",
      "id": 1132447796,
      "lat": 53.3582056,
      "lon": -1.4829737
    },
    {
      "type": "node",
      "id": 1104825761,
      "lat": 53.3590217,
      "lon": -1.4748725
    },
    {
      "type": "node",
      "id": 1104825768,
      "lat": 53.3590034,
      "lon": -1.4749002
    },
    {
      "type": "node",
      "id": 1104825821,
      "lat": 53.3591156,
      "lon": -1.4747456
    },
    {
      "type": "node",
      "id": 1104825970,
      "lat": 53.3591774,
      "lon": -1.4748778
    },
    {
      "type": "node",
      "id": 1104825978,
      "lat": 53.3591717,
      "lon": -1.4748448
    },
    {
      "type": "node",
      "id": 1104825989,
      "lat": 53.3590292,
      "lon": -1.4748878
    },
    {
      "type": "node",
      "id": 1104826082,
      "lat": 53.3591429,
      "lon": -1.4747778
    },
    {
      "type": "node",
      "id": 1104826098,
      "lat": 53.3590565,
      "lon": -1.4750439
    },
    {
      "type": "node",
      "id": 1104826273,
      "lat": 53.3591021,
      "lon": -1.4750155
    },
    {
      "type": "node",
      "id": 1104826317,
      "lat": 53.3591685,
      "lon": -1.4749468
    },
    {
      "type": "node",
      "id": 1540712325,
      "lat": 53.3591771,
      "lon": -1.4749098
    },
    {
      "type": "node",
      "id": 1540712376,
      "lat": 53.3591602,
      "lon": -1.4748086
    },
    {
      "type": "node",
      "id": 1540712393,
      "lat": 53.3595167,
      "lon": -1.4745749
    },
    {
      "type": "node",
      "id": 1540712428,
      "lat": 53.359378,
      "lon": -1.4747273
    },
    {
      "type": "node",
      "id": 1540712431,
      "lat": 53.3590947,
      "lon": -1.4749985
    },
    {
      "type": "node",
      "id": 1540712432,
      "lat": 53.3593425,
      "lon": -1.4746364
    },
    {
      "type": "node",
      "id": 1540712474,
      "lat": 53.3593961,
      "lon": -1.4745775
    },
    {
      "type": "node",
      "id": 1540712484,
      "lat": 53.3591736,
      "lon": -1.474932
    },
    {
      "type": "node",
      "id": 1540734714,
      "lat": 53.3590392,
      "lon": -1.474997
    },
    {
      "type": "node",
      "id": 1540734746,
      "lat": 53.3590436,
      "lon": -1.4748642
    },
    {
      "type": "node",
      "id": 1091832086,
      "lat": 53.3620905,
      "lon": -1.4708503
    },
    {
      "type": "node",
      "id": 1098497928,
      "lat": 53.3609507,
      "lon": -1.4698306
    },
    {
      "type": "node",
      "id": 1098498070,
      "lat": 53.3609756,
      "lon": -1.4697525
    },
    {
      "type": "node",
      "id": 1098498233,
      "lat": 53.3611104,
      "lon": -1.4697954
    },
    {
      "type": "node",
      "id": 1098498429,
      "lat": 53.361026,
      "lon": -1.4698929
    },
    {
      "type": "node",
      "id": 1098498518,
      "lat": 53.3609747,
      "lon": -1.4698521
    },
    {
      "type": "node",
      "id": 1098498568,
      "lat": 53.3610611,
      "lon": -1.4697823
    },
    {
      "type": "node",
      "id": 1098498937,
      "lat": 53.3610193,
      "lon": -1.4697916
    },
    {
      "type": "node",
      "id": 1098499099,
      "lat": 53.360956,
      "lon": -1.4699106
    },
    {
      "type": "node",
      "id": 1098499160,
      "lat": 53.3610309,
      "lon": -1.4697552
    },
    {
      "type": "node",
      "id": 1098499310,
      "lat": 53.361006,
      "lon": -1.4699554
    },
    {
      "type": "node",
      "id": 1098499312,
      "lat": 53.3610674,
      "lon": -1.4699301
    },
    {
      "type": "node",
      "id": 1098499453,
      "lat": 53.3610688,
      "lon": -1.4697581
    },
    {
      "type": "node",
      "id": 1223601329,
      "lat": 53.3620451,
      "lon": -1.4709294
    },
    {
      "type": "node",
      "id": 1540553690,
      "lat": 53.3600562,
      "lon": -1.4735802
    },
    {
      "type": "node",
      "id": 1540553725,
      "lat": 53.3600521,
      "lon": -1.4735563
    },
    {
      "type": "node",
      "id": 1540553740,
      "lat": 53.3601047,
      "lon": -1.4736926
    },
    {
      "type": "node",
      "id": 1540553758,
      "lat": 53.3600217,
      "lon": -1.4733695
    },
    {
      "type": "node",
      "id": 1540553776,
      "lat": 53.3599925,
      "lon": -1.4734024
    },
    {
      "type": "node",
      "id": 1540553792,
      "lat": 53.3600804,
      "lon": -1.4735203
    },
    {
      "type": "node",
      "id": 1540553802,
      "lat": 53.3600027,
      "lon": -1.4733909
    },
    {
      "type": "node",
      "id": 1540553817,
      "lat": 53.3601329,
      "lon": -1.4734527
    },
    {
      "type": "node",
      "id": 1540553821,
      "lat": 53.3601853,
      "lon": -1.4735839
    },
    {
      "type": "node",
      "id": 1540553827,
      "lat": 53.3600483,
      "lon": -1.4735619
    },
    {
      "type": "node",
      "id": 1540712329,
      "lat": 53.3594407,
      "lon": -1.4743724
    },
    {
      "type": "node",
      "id": 1540712340,
      "lat": 53.3594928,
      "lon": -1.4744579
    },
    {
      "type": "node",
      "id": 1540712344,
      "lat": 53.3594775,
      "lon": -1.4744746
    },
    {
      "type": "node",
      "id": 1540712360,
      "lat": 53.3594133,
      "lon": -1.4744584
    },
    {
      "type": "node",
      "id": 1540712450,
      "lat": 53.359398,
      "lon": -1.4744193
    },
    {
      "type": "node",
      "id": 1540712454,
      "lat": 53.3594575,
      "lon": -1.4744152
    },
    {
      "type": "node",
      "id": 1540712488,
      "lat": 53.3594349,
      "lon": -1.4743787
    },
    {
      "type": "node",
      "id": 1540712497,
      "lat": 53.3594705,
      "lon": -1.4744009
    },
    {
      "type": "node",
      "id": 1540712519,
      "lat": 53.3593687,
      "lon": -1.4745074
    },
    {
      "type": "node",
      "id": 1091831544,
      "lat": 53.3620453,
      "lon": -1.4709724
    },
    {
      "type": "node",
      "id": 1091831750,
      "lat": 53.3621659,
      "lon": -1.4709726
    },
    {
      "type": "node",
      "id": 1091831759,
      "lat": 53.3621884,
      "lon": -1.4709348
    },
    {
      "type": "node",
      "id": 1091831841,
      "lat": 53.3622101,
      "lon": -1.4709734
    },
    {
      "type": "node",
      "id": 1091831919,
      "lat": 53.3621996,
      "lon": -1.4709903
    },
    {
      "type": "node",
      "id": 1091832159,
      "lat": 53.3622276,
      "lon": -1.4710399
    },
    {
      "type": "node",
      "id": 1223601360,
      "lat": 53.3621832,
      "lon": -1.4711516
    },
    {
      "type": "node",
      "id": 1997327502,
      "lat": 53.3620911,
      "lon": -1.4710511
    },
    {
      "type": "node",
      "id": 1997327503,
      "lat": 53.3620999,
      "lon": -1.4710369
    },
    {
      "type": "node",
      "id": 1997327504,
      "lat": 53.3621607,
      "lon": -1.4711425
    },
    {
      "type": "node",
      "id": 1997327505,
      "lat": 53.3621701,
      "lon": -1.4711258
    },
    {
      "type": "node",
      "id": 1997327507,
      "lat": 53.362217,
      "lon": -1.471057
    },
    {
      "type": "node",
      "id": 1997327509,
      "lat": 53.3622304,
      "lon": -1.4710791
    },
    {
      "type": "node",
      "id": 3407822124,
      "lat": 53.3609957,
      "lon": -1.4699462
    },
    {
      "type": "node",
      "id": 1261235633,
      "lat": 53.382799,
      "lon": -1.5080876
    },
    {
      "type": "node",
      "id": 1261235662,
      "lat": 53.3826794,
      "lon": -1.5082471
    },
    {
      "type": "node",
      "id": 1261235773,
      "lat": 53.3827295,
      "lon": -1.5082918
    },
    {
      "type": "node",
      "id": 1261235836,
      "lat": 53.3828708,
      "lon": -1.5082389
    },
    {
      "type": "node",
      "id": 1261236004,
      "lat": 53.3828061,
      "lon": -1.5083252
    },
    {
      "type": "node",
      "id": 1261236090,
      "lat": 53.3827118,
      "lon": -1.5083154
    },
    {
      "type": "node",
      "id": 1261236123,
      "lat": 53.3827916,
      "lon": -1.5082947
    },
    {
      "type": "node",
      "id": 1261236125,
      "lat": 53.3827544,
      "lon": -1.5083443
    },
    {
      "type": "node",
      "id": 961573220,
      "lat": 53.3778379,
      "lon": -1.50141
    },
    {
      "type": "node",
      "id": 961573221,
      "lat": 53.3777909,
      "lon": -1.5013703
    },
    {
      "type": "node",
      "id": 1084210201,
      "lat": 53.3779194,
      "lon": -1.5013048
    },
    {
      "type": "node",
      "id": 1084210411,
      "lat": 53.3779325,
      "lon": -1.5015085
    },
    {
      "type": "node",
      "id": 1084210642,
      "lat": 53.3779284,
      "lon": -1.5014816
    },
    {
      "type": "node",
      "id": 1084210900,
      "lat": 53.3777829,
      "lon": -1.5013955
    },
    {
      "type": "node",
      "id": 1084210921,
      "lat": 53.3778202,
      "lon": -1.5016382
    },
    {
      "type": "node",
      "id": 1084211022,
      "lat": 53.3779442,
      "lon": -1.5015847
    },
    {
      "type": "node",
      "id": 1084211329,
      "lat": 53.3778835,
      "lon": -1.5013203
    },
    {
      "type": "node",
      "id": 1084211582,
      "lat": 53.3778701,
      "lon": -1.5013021
    },
    {
      "type": "node",
      "id": 1084212022,
      "lat": 53.3779454,
      "lon": -1.5014743
    },
    {
      "type": "node",
      "id": 1210631393,
      "lat": 53.3773719,
      "lon": -1.4997383
    },
    {
      "type": "node",
      "id": 1210631434,
      "lat": 53.3772391,
      "lon": -1.5000709
    },
    {
      "type": "node",
      "id": 1210631785,
      "lat": 53.3772087,
      "lon": -1.4998161
    },
    {
      "type": "node",
      "id": 1210632162,
      "lat": 53.3772071,
      "lon": -1.4999394
    },
    {
      "type": "node",
      "id": 1210632238,
      "lat": 53.3774391,
      "lon": -1.4999824
    },
    {
      "type": "node",
      "id": 1210633014,
      "lat": 53.3773703,
      "lon": -1.5000306
    },
    {
      "type": "node",
      "id": 1210633602,
      "lat": 53.3773559,
      "lon": -1.4999797
    },
    {
      "type": "node",
      "id": 1210633620,
      "lat": 53.3772343,
      "lon": -1.4999153
    },
    {
      "type": "node",
      "id": 1210633838,
      "lat": 53.3773175,
      "lon": -1.4997275
    },
    {
      "type": "node",
      "id": 1296093018,
      "lat": 53.3887277,
      "lon": -1.5008963
    },
    {
      "type": "node",
      "id": 1296093655,
      "lat": 53.3886797,
      "lon": -1.5009974
    },
    {
      "type": "node",
      "id": 1585801498,
      "lat": 53.3886584,
      "lon": -1.5010499
    },
    {
      "type": "node",
      "id": 1585801500,
      "lat": 53.3886597,
      "lon": -1.5011064
    },
    {
      "type": "node",
      "id": 1585801501,
      "lat": 53.3886739,
      "lon": -1.5010677
    },
    {
      "type": "node",
      "id": 1585801503,
      "lat": 53.3887125,
      "lon": -1.5011681
    },
    {
      "type": "node",
      "id": 1585801509,
      "lat": 53.3887324,
      "lon": -1.5008872
    },
    {
      "type": "node",
      "id": 1585801510,
      "lat": 53.3887949,
      "lon": -1.5009652
    },
    {
      "type": "node",
      "id": 1585801512,
      "lat": 53.3887954,
      "lon": -1.500992
    },
    {
      "type": "node",
      "id": 1273405932,
      "lat": 53.3860296,
      "lon": -1.4970819
    },
    {
      "type": "node",
      "id": 1273405934,
      "lat": 53.3859919,
      "lon": -1.4969639
    },
    {
      "type": "node",
      "id": 1273405937,
      "lat": 53.3860934,
      "lon": -1.4969961
    },
    {
      "type": "node",
      "id": 1273405948,
      "lat": 53.3860017,
      "lon": -1.497088
    },
    {
      "type": "node",
      "id": 1273405951,
      "lat": 53.3860427,
      "lon": -1.4970074
    },
    {
      "type": "node",
      "id": 1273405975,
      "lat": 53.3860339,
      "lon": -1.4971358
    },
    {
      "type": "node",
      "id": 1273405986,
      "lat": 53.3861147,
      "lon": -1.4972662
    },
    {
      "type": "node",
      "id": 1273406134,
      "lat": 53.3860006,
      "lon": -1.4972915
    },
    {
      "type": "node",
      "id": 1273406384,
      "lat": 53.3860385,
      "lon": -1.4969536
    },
    {
      "type": "node",
      "id": 1273406493,
      "lat": 53.3859891,
      "lon": -1.4971457
    },
    {
      "type": "node",
      "id": 1281956906,
      "lat": 53.3859756,
      "lon": -1.4974897
    },
    {
      "type": "node",
      "id": 1281957287,
      "lat": 53.386157,
      "lon": -1.497585
    },
    {
      "type": "node",
      "id": 1281957441,
      "lat": 53.3861158,
      "lon": -1.4976138
    },
    {
      "type": "node",
      "id": 1281957454,
      "lat": 53.3860931,
      "lon": -1.4974077
    },
    {
      "type": "node",
      "id": 1281957469,
      "lat": 53.386117,
      "lon": -1.4974238
    },
    {
      "type": "node",
      "id": 1281957472,
      "lat": 53.386011,
      "lon": -1.4976326
    },
    {
      "type": "node",
      "id": 1281957491,
      "lat": 53.3861043,
      "lon": -1.4975675
    },
    {
      "type": "node",
      "id": 3471289382,
      "lat": 53.387377,
      "lon": -1.4973123
    },
    {
      "type": "node",
      "id": 3471289383,
      "lat": 53.3874397,
      "lon": -1.4974095
    },
    {
      "type": "node",
      "id": 3471289384,
      "lat": 53.3874633,
      "lon": -1.4973668
    },
    {
      "type": "node",
      "id": 3471289385,
      "lat": 53.3875616,
      "lon": -1.4975193
    },
    {
      "type": "node",
      "id": 3471289386,
      "lat": 53.3874999,
      "lon": -1.4976312
    },
    {
      "type": "node",
      "id": 3471289387,
      "lat": 53.3873389,
      "lon": -1.4973815
    },
    {
      "type": "node",
      "id": 1189359998,
      "lat": 53.3716978,
      "lon": -1.4889951
    },
    {
      "type": "node",
      "id": 1189361171,
      "lat": 53.3716464,
      "lon": -1.4891727
    },
    {
      "type": "node",
      "id": 1189361765,
      "lat": 53.3714604,
      "lon": -1.4890215
    },
    {
      "type": "node",
      "id": 1189361874,
      "lat": 53.3715117,
      "lon": -1.4888439
    },
    {
      "type": "node",
      "id": 1885909484,
      "lat": 53.3726726,
      "lon": -1.4821026
    },
    {
      "type": "node",
      "id": 1885909497,
      "lat": 53.3726978,
      "lon": -1.4819395
    },
    {
      "type": "node",
      "id": 1885909504,
      "lat": 53.3727175,
      "lon": -1.4818121
    },
    {
      "type": "node",
      "id": 1885909507,
      "lat": 53.37272,
      "lon": -1.4817961
    },
    {
      "type": "node",
      "id": 1885909511,
      "lat": 53.3727456,
      "lon": -1.4818236
    },
    {
      "type": "node",
      "id": 1885909513,
      "lat": 53.372748,
      "lon": -1.4818083
    },
    {
      "type": "node",
      "id": 1885909515,
      "lat": 53.3727622,
      "lon": -1.4821417
    },
    {
      "type": "node",
      "id": 1885909529,
      "lat": 53.3727934,
      "lon": -1.4821552
    },
    {
      "type": "node",
      "id": 1885909539,
      "lat": 53.3728075,
      "lon": -1.4821259
    },
    {
      "type": "node",
      "id": 1885909548,
      "lat": 53.372821,
      "lon": -1.482092
    },
    {
      "type": "node",
      "id": 1885909554,
      "lat": 53.372831,
      "lon": -1.4820592
    },
    {
      "type": "node",
      "id": 1885909557,
      "lat": 53.3728384,
      "lon": -1.4818638
    },
    {
      "type": "node",
      "id": 1885909558,
      "lat": 53.3728402,
      "lon": -1.4820214
    },
    {
      "type": "node",
      "id": 1885909559,
      "lat": 53.3728415,
      "lon": -1.4819041
    },
    {
      "type": "node",
      "id": 1885909561,
      "lat": 53.3728433,
      "lon": -1.4819424
    },
    {
      "type": "node",
      "id": 1885909562,
      "lat": 53.3728434,
      "lon": -1.4819849
    },
    {
      "type": "node",
      "id": 1150827930,
      "lat": 53.3719817,
      "lon": -1.4861383
    },
    {
      "type": "node",
      "id": 1150827952,
      "lat": 53.3719713,
      "lon": -1.4865098
    },
    {
      "type": "node",
      "id": 1150827997,
      "lat": 53.3719889,
      "lon": -1.4861182
    },
    {
      "type": "node",
      "id": 1150828027,
      "lat": 53.3720009,
      "lon": -1.4861101
    },
    {
      "type": "node",
      "id": 1150828042,
      "lat": 53.3720193,
      "lon": -1.4864079
    },
    {
      "type": "node",
      "id": 1150828054,
      "lat": 53.3720505,
      "lon": -1.4862751
    },
    {
      "type": "node",
      "id": 1150828100,
      "lat": 53.3720761,
      "lon": -1.4862027
    },
    {
      "type": "node",
      "id": 1150828109,
      "lat": 53.3720681,
      "lon": -1.4863113
    },
    {
      "type": "node",
      "id": 1150828130,
      "lat": 53.3718376,
      "lon": -1.4863529
    },
    {
      "type": "node",
      "id": 1150828133,
      "lat": 53.3720713,
      "lon": -1.4861825
    },
    {
      "type": "node",
      "id": 1150828176,
      "lat": 53.3719873,
      "lon": -1.4865058
    },
    {
      "type": "node",
      "id": 1150828195,
      "lat": 53.3720633,
      "lon": -1.4862858
    },
    {
      "type": "node",
      "id": 1150828229,
      "lat": 53.3719112,
      "lon": -1.4860686
    },
    {
      "type": "node",
      "id": 1150828278,
      "lat": 53.37184,
      "lon": -1.486381
    },
    {
      "type": "node",
      "id": 1150828294,
      "lat": 53.3718992,
      "lon": -1.4860753
    },
    {
      "type": "node",
      "id": 1150828438,
      "lat": 53.3720393,
      "lon": -1.4864011
    },
    {
      "type": "node",
      "id": 1150828473,
      "lat": 53.3718432,
      "lon": -1.4862335
    },
    {
      "type": "node",
      "id": 1150828477,
      "lat": 53.3718368,
      "lon": -1.4862858
    },
    {
      "type": "node",
      "id": 1150828498,
      "lat": 53.3718448,
      "lon": -1.4862576
    },
    {
      "type": "node",
      "id": 1150828782,
      "lat": 53.3718512,
      "lon": -1.4863046
    },
    {
      "type": "node",
      "id": 247256822,
      "lat": 53.3688415,
      "lon": -1.4764674
    },
    {
      "type": "node",
      "id": 1084003577,
      "lat": 53.3689423,
      "lon": -1.4765345
    },
    {
      "type": "node",
      "id": 1084003822,
      "lat": 53.3688511,
      "lon": -1.4762046
    },
    {
      "type": "node",
      "id": 1084003903,
      "lat": 53.3690159,
      "lon": -1.4762877
    },
    {
      "type": "node",
      "id": 1084003963,
      "lat": 53.3688671,
      "lon": -1.476167
    },
    {
      "type": "node",
      "id": 2519937593,
      "lat": 53.3688135,
      "lon": -1.476374
    },
    {
      "type": "node",
      "id": 1084028498,
      "lat": 53.3689885,
      "lon": -1.4719643
    },
    {
      "type": "node",
      "id": 1084028501,
      "lat": 53.3689709,
      "lon": -1.4719133
    },
    {
      "type": "node",
      "id": 1084028860,
      "lat": 53.3688653,
      "lon": -1.4718409
    },
    {
      "type": "node",
      "id": 1084029161,
      "lat": 53.3688749,
      "lon": -1.471806
    },
    {
      "type": "node",
      "id": 1084029481,
      "lat": 53.3689805,
      "lon": -1.4718355
    },
    {
      "type": "node",
      "id": 1084030180,
      "lat": 53.3689216,
      "lon": -1.4720132
    },
    {
      "type": "node",
      "id": 1084064789,
      "lat": 53.3674861,
      "lon": -1.470858
    },
    {
      "type": "node",
      "id": 1084065027,
      "lat": 53.3676123,
      "lon": -1.4708782
    },
    {
      "type": "node",
      "id": 1084065469,
      "lat": 53.3674964,
      "lon": -1.4706779
    },
    {
      "type": "node",
      "id": 1084065728,
      "lat": 53.3676226,
      "lon": -1.4706981
    },
    {
      "type": "node",
      "id": 1860329101,
      "lat": 53.3722478,
      "lon": -1.4762918
    },
    {
      "type": "node",
      "id": 1860329122,
      "lat": 53.372252,
      "lon": -1.4763169
    },
    {
      "type": "node",
      "id": 1860329265,
      "lat": 53.3723224,
      "lon": -1.4764358
    },
    {
      "type": "node",
      "id": 1860329312,
      "lat": 53.3723525,
      "lon": -1.4764218
    },
    {
      "type": "node",
      "id": 1886160994,
      "lat": 53.3724844,
      "lon": -1.4773107
    },
    {
      "type": "node",
      "id": 1886161001,
      "lat": 53.3725611,
      "lon": -1.4774105
    },
    {
      "type": "node",
      "id": 1084003696,
      "lat": 53.3724575,
      "lon": -1.4773688
    },
    {
      "type": "node",
      "id": 1084003699,
      "lat": 53.3723643,
      "lon": -1.477375
    },
    {
      "type": "node",
      "id": 1084003795,
      "lat": 53.3724011,
      "lon": -1.4772954
    },
    {
      "type": "node",
      "id": 1084003818,
      "lat": 53.3724974,
      "lon": -1.4775482
    },
    {
      "type": "node",
      "id": 1319869760,
      "lat": 53.3705263,
      "lon": -1.4766286
    },
    {
      "type": "node",
      "id": 1319869765,
      "lat": 53.3704519,
      "lon": -1.4766156
    },
    {
      "type": "node",
      "id": 1319869775,
      "lat": 53.3703967,
      "lon": -1.4764677
    },
    {
      "type": "node",
      "id": 1319869796,
      "lat": 53.3711274,
      "lon": -1.4770677
    },
    {
      "type": "node",
      "id": 1319869810,
      "lat": 53.3704719,
      "lon": -1.4766769
    },
    {
      "type": "node",
      "id": 1319869845,
      "lat": 53.371158,
      "lon": -1.4772073
    },
    {
      "type": "node",
      "id": 1319869856,
      "lat": 53.371236,
      "lon": -1.4771568
    },
    {
      "type": "node",
      "id": 1319869871,
      "lat": 53.3705455,
      "lon": -1.4765132
    },
    {
      "type": "node",
      "id": 1319869933,
      "lat": 53.3704966,
      "lon": -1.4763772
    },
    {
      "type": "node",
      "id": 1319869959,
      "lat": 53.3704299,
      "lon": -1.476636
    },
    {
      "type": "node",
      "id": 1319869966,
      "lat": 53.3703903,
      "lon": -1.4765213
    },
    {
      "type": "node",
      "id": 1319869968,
      "lat": 53.3711944,
      "lon": -1.477008
    },
    {
      "type": "node",
      "id": 1319878378,
      "lat": 53.3722726,
      "lon": -1.4766502
    },
    {
      "type": "node",
      "id": 1319878390,
      "lat": 53.3722428,
      "lon": -1.4764711
    },
    {
      "type": "node",
      "id": 1319878398,
      "lat": 53.372382,
      "lon": -1.4765991
    },
    {
      "type": "node",
      "id": 1319878414,
      "lat": 53.3722155,
      "lon": -1.4763069
    },
    {
      "type": "node",
      "id": 1319878418,
      "lat": 53.3722989,
      "lon": -1.4762949
    },
    {
      "type": "node",
      "id": 1603904885,
      "lat": 53.3700404,
      "lon": -1.4778418
    },
    {
      "type": "node",
      "id": 1603904905,
      "lat": 53.3700893,
      "lon": -1.4776773
    },
    {
      "type": "node",
      "id": 1603904913,
      "lat": 53.3701415,
      "lon": -1.4778695
    },
    {
      "type": "node",
      "id": 1603904917,
      "lat": 53.3701528,
      "lon": -1.4776979
    },
    {
      "type": "node",
      "id": 1603904919,
      "lat": 53.3701589,
      "lon": -1.4777107
    },
    {
      "type": "node",
      "id": 247256918,
      "lat": 53.3700554,
      "lon": -1.4772093
    },
    {
      "type": "node",
      "id": 1083992440,
      "lat": 53.3700778,
      "lon": -1.4772093
    },
    {
      "type": "node",
      "id": 1083992452,
      "lat": 53.3699513,
      "lon": -1.4772281
    },
    {
      "type": "node",
      "id": 1083992492,
      "lat": 53.3699289,
      "lon": -1.4773595
    },
    {
      "type": "node",
      "id": 1083992510,
      "lat": 53.3702035,
      "lon": -1.4774868
    },
    {
      "type": "node",
      "id": 1083992540,
      "lat": 53.3699609,
      "lon": -1.4770886
    },
    {
      "type": "node",
      "id": 1083992708,
      "lat": 53.3700719,
      "lon": -1.4774336
    },
    {
      "type": "node",
      "id": 1083992731,
      "lat": 53.3700602,
      "lon": -1.4770913
    },
    {
      "type": "node",
      "id": 1603904929,
      "lat": 53.3702102,
      "lon": -1.4773967
    },
    {
      "type": "node",
      "id": 1603904936,
      "lat": 53.370225,
      "lon": -1.4773194
    },
    {
      "type": "node",
      "id": 1603905035,
      "lat": 53.3702639,
      "lon": -1.4773452
    },
    {
      "type": "node",
      "id": 1603905040,
      "lat": 53.3702706,
      "lon": -1.4774971
    },
    {
      "type": "node",
      "id": 1603905047,
      "lat": 53.3702808,
      "lon": -1.477286
    },
    {
      "type": "node",
      "id": 1603905064,
      "lat": 53.3702988,
      "lon": -1.4773858
    },
    {
      "type": "node",
      "id": 1603905076,
      "lat": 53.3703172,
      "lon": -1.4773134
    },
    {
      "type": "node",
      "id": 1893107022,
      "lat": 53.3707728,
      "lon": -1.4776012
    },
    {
      "type": "node",
      "id": 1893107026,
      "lat": 53.3707938,
      "lon": -1.4777416
    },
    {
      "type": "node",
      "id": 1893107064,
      "lat": 53.3708522,
      "lon": -1.4775678
    },
    {
      "type": "node",
      "id": 1893107071,
      "lat": 53.3708732,
      "lon": -1.4777082
    },
    {
      "type": "node",
      "id": 1106094268,
      "lat": 53.3749983,
      "lon": -1.4706314
    },
    {
      "type": "node",
      "id": 1106094271,
      "lat": 53.3750243,
      "lon": -1.4704528
    },
    {
      "type": "node",
      "id": 1106094418,
      "lat": 53.375065,
      "lon": -1.4705607
    },
    {
      "type": "node",
      "id": 1106094423,
      "lat": 53.3749576,
      "lon": -1.4705234
    },
    {
      "type": "node",
      "id": 1204233275,
      "lat": 53.3750011,
      "lon": -1.4706281
    },
    {
      "type": "node",
      "id": 1508690218,
      "lat": 53.3707615,
      "lon": -1.4728324
    },
    {
      "type": "node",
      "id": 1508690245,
      "lat": 53.3707709,
      "lon": -1.4724349
    },
    {
      "type": "node",
      "id": 1508690268,
      "lat": 53.3708649,
      "lon": -1.4724676
    },
    {
      "type": "node",
      "id": 1508690326,
      "lat": 53.3707693,
      "lon": -1.4727699
    },
    {
      "type": "node",
      "id": 1508690329,
      "lat": 53.3708172,
      "lon": -1.4728518
    },
    {
      "type": "node",
      "id": 1508690351,
      "lat": 53.3707444,
      "lon": -1.4727612
    },
    {
      "type": "node",
      "id": 1508690626,
      "lat": 53.3707715,
      "lon": -1.4725431
    },
    {
      "type": "node",
      "id": 1508690698,
      "lat": 53.3707581,
      "lon": -1.4725385
    },
    {
      "type": "node",
      "id": 1319869793,
      "lat": 53.3716538,
      "lon": -1.4732105
    },
    {
      "type": "node",
      "id": 1319869843,
      "lat": 53.3716272,
      "lon": -1.4734187
    },
    {
      "type": "node",
      "id": 1319869853,
      "lat": 53.3715274,
      "lon": -1.4733829
    },
    {
      "type": "node",
      "id": 1319869857,
      "lat": 53.371554,
      "lon": -1.4731747
    },
    {
      "type": "node",
      "id": 961566981,
      "lat": 53.3793154,
      "lon": -1.4899276
    },
    {
      "type": "node",
      "id": 961566983,
      "lat": 53.3792677,
      "lon": -1.4896097
    },
    {
      "type": "node",
      "id": 961566984,
      "lat": 53.379405,
      "lon": -1.4896058
    },
    {
      "type": "node",
      "id": 961566988,
      "lat": 53.379405,
      "lon": -1.4899169
    },
    {
      "type": "node",
      "id": 1206763580,
      "lat": 53.3793065,
      "lon": -1.4897692
    },
    {
      "type": "node",
      "id": 1206764366,
      "lat": 53.3792722,
      "lon": -1.4897658
    },
    {
      "type": "node",
      "id": 2286175564,
      "lat": 53.3766195,
      "lon": -1.4920459
    },
    {
      "type": "node",
      "id": 2286175565,
      "lat": 53.3766242,
      "lon": -1.4920135
    },
    {
      "type": "node",
      "id": 2286175570,
      "lat": 53.3766435,
      "lon": -1.4919872
    },
    {
      "type": "node",
      "id": 2286175573,
      "lat": 53.3766578,
      "lon": -1.4919895
    },
    {
      "type": "node",
      "id": 2286175574,
      "lat": 53.3766619,
      "lon": -1.4919988
    },
    {
      "type": "node",
      "id": 2286175575,
      "lat": 53.3766656,
      "lon": -1.4919378
    },
    {
      "type": "node",
      "id": 2286175578,
      "lat": 53.3766803,
      "lon": -1.4919718
    },
    {
      "type": "node",
      "id": 2286175583,
      "lat": 53.3767333,
      "lon": -1.4922837
    },
    {
      "type": "node",
      "id": 2286175586,
      "lat": 53.3767679,
      "lon": -1.4918081
    },
    {
      "type": "node",
      "id": 2286175588,
      "lat": 53.3767831,
      "lon": -1.4918421
    },
    {
      "type": "node",
      "id": 2286175592,
      "lat": 53.3767969,
      "lon": -1.4918274
    },
    {
      "type": "node",
      "id": 2286175597,
      "lat": 53.37683,
      "lon": -1.49192
    },
    {
      "type": "node",
      "id": 2286175598,
      "lat": 53.3768351,
      "lon": -1.4919146
    },
    {
      "type": "node",
      "id": 2286175600,
      "lat": 53.3768393,
      "lon": -1.4919432
    },
    {
      "type": "node",
      "id": 2286175602,
      "lat": 53.376842,
      "lon": -1.4920814
    },
    {
      "type": "node",
      "id": 2286175603,
      "lat": 53.3768457,
      "lon": -1.4919363
    },
    {
      "type": "node",
      "id": 2286175606,
      "lat": 53.37686,
      "lon": -1.4921231
    },
    {
      "type": "node",
      "id": 2286175610,
      "lat": 53.3768849,
      "lon": -1.4920297
    },
    {
      "type": "node",
      "id": 1849053841,
      "lat": 53.3791247,
      "lon": -1.4823564
    },
    {
      "type": "node",
      "id": 1849053847,
      "lat": 53.3791256,
      "lon": -1.4822102
    },
    {
      "type": "node",
      "id": 1849053856,
      "lat": 53.3791813,
      "lon": -1.4823567
    },
    {
      "type": "node",
      "id": 1849053906,
      "lat": 53.3792208,
      "lon": -1.4822104
    },
    {
      "type": "node",
      "id": 1849053908,
      "lat": 53.3792321,
      "lon": -1.4822554
    },
    {
      "type": "node",
      "id": 1849054030,
      "lat": 53.379708,
      "lon": -1.4814873
    },
    {
      "type": "node",
      "id": 1849054035,
      "lat": 53.3797087,
      "lon": -1.4815379
    },
    {
      "type": "node",
      "id": 1849054062,
      "lat": 53.379772,
      "lon": -1.4813707
    },
    {
      "type": "node",
      "id": 1849054066,
      "lat": 53.3798076,
      "lon": -1.4815145
    },
    {
      "type": "node",
      "id": 1849054067,
      "lat": 53.3798082,
      "lon": -1.4815342
    },
    {
      "type": "node",
      "id": 1849054090,
      "lat": 53.3798383,
      "lon": -1.4814024
    },
    {
      "type": "node",
      "id": 1849054093,
      "lat": 53.3798383,
      "lon": -1.4815067
    },
    {
      "type": "node",
      "id": 1849054094,
      "lat": 53.3798384,
      "lon": -1.4813885
    },
    {
      "type": "node",
      "id": 1849054095,
      "lat": 53.3798386,
      "lon": -1.481514
    },
    {
      "type": "node",
      "id": 1849054118,
      "lat": 53.3798454,
      "lon": -1.4815062
    },
    {
      "type": "node",
      "id": 1849054119,
      "lat": 53.3798527,
      "lon": -1.4818338
    },
    {
      "type": "node",
      "id": 1849054172,
      "lat": 53.3799482,
      "lon": -1.4814336
    },
    {
      "type": "node",
      "id": 1849054194,
      "lat": 53.3799553,
      "lon": -1.4814548
    },
    {
      "type": "node",
      "id": 1849054198,
      "lat": 53.3799562,
      "lon": -1.4814993
    },
    {
      "type": "node",
      "id": 1849054200,
      "lat": 53.3799666,
      "lon": -1.4814987
    },
    {
      "type": "node",
      "id": 1849054208,
      "lat": 53.3799813,
      "lon": -1.4818293
    },
    {
      "type": "node",
      "id": 1886467105,
      "lat": 53.3816198,
      "lon": -1.485403
    },
    {
      "type": "node",
      "id": 1886467112,
      "lat": 53.3816276,
      "lon": -1.485427
    },
    {
      "type": "node",
      "id": 1886467114,
      "lat": 53.3816301,
      "lon": -1.4853649
    },
    {
      "type": "node",
      "id": 1886467121,
      "lat": 53.3816429,
      "lon": -1.4855215
    },
    {
      "type": "node",
      "id": 1886467122,
      "lat": 53.3816446,
      "lon": -1.4853576
    },
    {
      "type": "node",
      "id": 1886467126,
      "lat": 53.3816605,
      "lon": -1.4854495
    },
    {
      "type": "node",
      "id": 1886467127,
      "lat": 53.3816631,
      "lon": -1.4853702
    },
    {
      "type": "node",
      "id": 1886467128,
      "lat": 53.3816672,
      "lon": -1.4853532
    },
    {
      "type": "node",
      "id": 1886467129,
      "lat": 53.3816716,
      "lon": -1.4853562
    },
    {
      "type": "node",
      "id": 1886467130,
      "lat": 53.381687,
      "lon": -1.4852928
    },
    {
      "type": "node",
      "id": 1886467133,
      "lat": 53.3817297,
      "lon": -1.4853221
    },
    {
      "type": "node",
      "id": 1886467134,
      "lat": 53.381737,
      "lon": -1.4852921
    },
    {
      "type": "node",
      "id": 1886467135,
      "lat": 53.3817447,
      "lon": -1.4855913
    },
    {
      "type": "node",
      "id": 1886467136,
      "lat": 53.38176,
      "lon": -1.4855286
    },
    {
      "type": "node",
      "id": 1886467137,
      "lat": 53.3817646,
      "lon": -1.4853288
    },
    {
      "type": "node",
      "id": 1886467138,
      "lat": 53.3817669,
      "lon": -1.4855333
    },
    {
      "type": "node",
      "id": 1886467139,
      "lat": 53.3817683,
      "lon": -1.4853136
    },
    {
      "type": "node",
      "id": 1886467140,
      "lat": 53.38178,
      "lon": -1.4854465
    },
    {
      "type": "node",
      "id": 1886467151,
      "lat": 53.381787,
      "lon": -1.4854512
    },
    {
      "type": "node",
      "id": 1886467178,
      "lat": 53.3818024,
      "lon": -1.4853547
    },
    {
      "type": "node",
      "id": 1834007002,
      "lat": 53.3778737,
      "lon": -1.4766694
    },
    {
      "type": "node",
      "id": 1834007019,
      "lat": 53.3779161,
      "lon": -1.4765625
    },
    {
      "type": "node",
      "id": 1834007387,
      "lat": 53.3780081,
      "lon": -1.4765336
    },
    {
      "type": "node",
      "id": 1834007411,
      "lat": 53.378034,
      "lon": -1.4768448
    },
    {
      "type": "node",
      "id": 1834007465,
      "lat": 53.3780768,
      "lon": -1.4767346
    },
    {
      "type": "node",
      "id": 1834007495,
      "lat": 53.3781031,
      "lon": -1.4765784
    },
    {
      "type": "node",
      "id": 1846803337,
      "lat": 53.3796544,
      "lon": -1.476215
    },